{"lots":{"bikelot1":{"name":"001 - Leopold Ii","freebikes":4,"freespots":16,"state":"open","latitude":50.834598265927,"longitude":4.413783422886},"bikelot2":{"name":"002 - Eloy\/eloy","freebikes":17,"freespots":8,"state":"open","latitude":50.834444741347,"longitude":4.32475493955},"bikelot3":{"name":"004 - Jardin Aux Fleurs \/ Bloemenhof","freebikes":12,"freespots":8,"state":"open","latitude":50.846269945901,"longitude":4.3424312669987},"bikelot4":{"name":"005 - Bourse \/ Beurs","freebikes":21,"freespots":3,"state":"open","latitude":50.847186987196,"longitude":4.3481310925066},"bikelot5":{"name":"006 - Gare Centrale\/centraal Station","freebikes":30,"freespots":0,"state":"open","latitude":50.843626998413,"longitude":4.3552099446744},"bikelot6":{"name":"007 - Parc \/ Park","freebikes":21,"freespots":3,"state":"open","latitude":50.844613040719,"longitude":4.3609787672424},"bikelot7":{"name":"008 - Arts-loi \/ Kunst-wet","freebikes":12,"freespots":8,"state":"open","latitude":50.843977072544,"longitude":4.3673165975217},"bikelot8":{"name":"009 - Anneesens \/ Anneessens","freebikes":22,"freespots":2,"state":"open","latitude":50.842338920316,"longitude":4.343783286382},"bikelot9":{"name":"010 - Chapelle \/ Kapel","freebikes":17,"freespots":0,"state":"open","latitude":50.839638936526,"longitude":4.3504641371848},"bikelot10":{"name":"011 - Sablon \/ Zavel","freebikes":11,"freespots":5,"state":"open","latitude":50.838793959565,"longitude":4.3556130041111},"bikelot11":{"name":"012 - Trone \/ Troon","freebikes":9,"freespots":12,"state":"open","latitude":50.838815015633,"longitude":4.3651247351188},"bikelot12":{"name":"013 - Lemonnier","freebikes":23,"freespots":2,"state":"open","latitude":50.838477865533,"longitude":4.3400594481347},"bikelot13":{"name":"014 - Porte De Namur \/ Naamsepoort","freebikes":2,"freespots":21,"state":"open","latitude":50.837317978059,"longitude":4.3609028763124},"bikelot14":{"name":"015 - Montgomery","freebikes":11,"freespots":13,"state":"open","latitude":50.835330223749,"longitude":4.4055596443269},"bikelot15":{"name":"016 - Louise \/ Louiza","freebikes":23,"freespots":17,"state":"open","latitude":50.83426191288,"longitude":4.3542431091993},"bikelot16":{"name":"017 - Comte De Flandre\/graaf Van Vlaanderen","freebikes":22,"freespots":2,"state":"open","latitude":50.85365198403,"longitude":4.3382002784021},"bikelot17":{"name":"018 - Gutenberg \/ Gutenberg","freebikes":8,"freespots":17,"state":"open","latitude":50.846004142573,"longitude":4.3762863144036},"bikelot18":{"name":"019 - Place Morichar\/moricharplein","freebikes":7,"freespots":13,"state":"open","latitude":50.826248799276,"longitude":4.3465264444718},"bikelot19":{"name":"020 - Palais Royal \/ Koninklijk Paleis","freebikes":16,"freespots":4,"state":"open","latitude":50.841907008143,"longitude":4.3593628525603},"bikelot20":{"name":"021 - De Brouckere \/ De Brouckere","freebikes":11,"freespots":12,"state":"open","latitude":50.850213032864,"longitude":4.351510952651},"bikelot21":{"name":"022 - Jacqmain \/ Jacqmain","freebikes":13,"freespots":2,"state":"open","latitude":50.854263084348,"longitude":4.3543918118611},"bikelot22":{"name":"023 - Agora \/ Agora","freebikes":19,"freespots":0,"state":"open","latitude":50.844624999394,"longitude":4.3539279662666},"bikelot23":{"name":"024 - Rogier \/ Rogier","freebikes":40,"freespots":4,"state":"open","latitude":50.853444092589,"longitude":4.3569837506279},"bikelot24":{"name":"025 - Porte D'anderlecht \/ Anderlechtsepoort","freebikes":16,"freespots":9,"state":"open","latitude":50.842746885887,"longitude":4.3373264628419},"bikelot25":{"name":"027 - Square Albert I \/ Albert I Square","freebikes":22,"freespots":2,"state":"open","latitude":50.837026738369,"longitude":4.3204960221133},"bikelot26":{"name":"028 - Clemenceau \/ Clemenceau","freebikes":19,"freespots":8,"state":"open","latitude":50.84029881753,"longitude":4.32923572729},"bikelot27":{"name":"029 - Baudouin \/ Boudewijn","freebikes":5,"freespots":20,"state":"open","latitude":50.854878073263,"longitude":4.351611881402},"bikelot28":{"name":"030 - Laeken \/ Laken","freebikes":3,"freespots":22,"state":"open","latitude":50.851960041866,"longitude":4.3505059554389},"bikelot29":{"name":"031 - Musee De La Bd \/ Stripmuseum","freebikes":15,"freespots":10,"state":"open","latitude":50.848597065669,"longitude":4.3594407522822},"bikelot30":{"name":"032 - Dansaert \/ Dansaert","freebikes":35,"freespots":0,"state":"open","latitude":50.848469980451,"longitude":4.3451191588123},"bikelot31":{"name":"033 - Mort Subite \/ Mort Subite","freebikes":23,"freespots":0,"state":"open","latitude":50.846995024674,"longitude":4.3547899071753},"bikelot32":{"name":"034 - Fontainas \/ Fontainas","freebikes":19,"freespots":4,"state":"open","latitude":50.843923944954,"longitude":4.3456772096524},"bikelot33":{"name":"035 - Cantersteen \/ Kantersteen","freebikes":20,"freespots":8,"state":"open","latitude":50.844108011551,"longitude":4.3567478941743},"bikelot34":{"name":"036 - Place St Jean \/ Sint-jansplein","freebikes":5,"freespots":20,"state":"open","latitude":50.843417967325,"longitude":4.3502210886848},"bikelot35":{"name":"037 - Poelaert \/ Poelaert","freebikes":4,"freespots":20,"state":"open","latitude":50.836243915157,"longitude":4.3517541504743},"bikelot36":{"name":"038 - Jeu De Balle \/ Vossenplein","freebikes":16,"freespots":3,"state":"open","latitude":50.83620588196,"longitude":4.3461563091623},"bikelot37":{"name":"039 - Hotel Des Monnaies \/ Munthotel","freebikes":22,"freespots":3,"state":"open","latitude":50.832530870076,"longitude":4.3494672694487},"bikelot38":{"name":"040 - Porte De Hal \/ Hallepoort","freebikes":25,"freespots":0,"state":"open","latitude":50.832224822983,"longitude":4.3418904879493},"bikelot39":{"name":"041 - Saint-roch\/sint-rochus","freebikes":17,"freespots":6,"state":"open","latitude":50.857596108052,"longitude":4.3535847857851},"bikelot40":{"name":"042 - Porte De Ninove \/ninoofsepoort","freebikes":13,"freespots":2,"state":"open","latitude":50.847463924891,"longitude":4.3371183996367},"bikelot41":{"name":"043 - Joseph Ii \/ Jozef Ii","freebikes":13,"freespots":12,"state":"open","latitude":50.843550103697,"longitude":4.3732354365851},"bikelot42":{"name":"044 - Charlemagne \/ Karel De Grote","freebikes":24,"freespots":1,"state":"open","latitude":50.840001052761,"longitude":4.3697205879152},"bikelot43":{"name":"045 - Stephanie \/ Stefania","freebikes":9,"freespots":15,"state":"open","latitude":50.831373899552,"longitude":4.3561650972118},"bikelot44":{"name":"046 - Albertine \/ Albertina","freebikes":13,"freespots":12,"state":"open","latitude":50.841849974628,"longitude":4.3537410122157},"bikelot45":{"name":"047 - Les Quais \/ Kaaien","freebikes":19,"freespots":0,"state":"open","latitude":50.85300802367,"longitude":4.3458860706305},"bikelot46":{"name":"048 - Congres \/ Congres","freebikes":18,"freespots":5,"state":"open","latitude":50.847652074549,"longitude":4.3623236846863},"bikelot47":{"name":"049 - Willebroek\/willebroek","freebikes":24,"freespots":1,"state":"open","latitude":50.859794105034,"longitude":4.3498778583135},"bikelot48":{"name":"050 - Ribeaucourt\/ribaucourt","freebikes":22,"freespots":3,"state":"open","latitude":50.859156029336,"longitude":4.337917205734},"bikelot49":{"name":"051 - Midi Fonsny\/zuid Fonsny","freebikes":25,"freespots":0,"state":"open","latitude":50.833992812641,"longitude":4.3375615843576},"bikelot50":{"name":"052 - Sainctelette\/sainctelette","freebikes":23,"freespots":2,"state":"open","latitude":50.857506052416,"longitude":4.3442450510684},"bikelot51":{"name":"053 - Gare Du Midi \/ Zuidstation","freebikes":39,"freespots":0,"state":"open","latitude":50.835792811085,"longitude":4.334682639345},"bikelot52":{"name":"055 - Botanique\/kruidtuin","freebikes":13,"freespots":12,"state":"open","latitude":50.851542123017,"longitude":4.364922554204},"bikelot53":{"name":"056 - Archimede \/ Archimedes","freebikes":9,"freespots":16,"state":"open","latitude":50.844111162708,"longitude":4.3824561678974},"bikelot54":{"name":"057 - Madou\/madou","freebikes":14,"freespots":9,"state":"open","latitude":50.848055111884,"longitude":4.3680905158488},"bikelot55":{"name":"058 - Gare Du Nord \/ Noordstation","freebikes":33,"freespots":2,"state":"open","latitude":50.857475133875,"longitude":4.3581546584117},"bikelot56":{"name":"059 - Place St-josse\/st Joostplein","freebikes":18,"freespots":6,"state":"open","latitude":50.847975146219,"longitude":4.3740463487632},"bikelot57":{"name":"060 - St-lazarre\/st Lazarus (ferm\u00c9e Pour Travaux)","freebikes":11,"freespots":14,"state":"open","latitude":50.855008128604,"longitude":4.3608406187},"bikelot58":{"name":"061 - Maelbeek \/ Maalbeek","freebikes":24,"freespots":0,"state":"open","latitude":50.842130112168,"longitude":4.3767363585236},"bikelot59":{"name":"062 - Cortenbergh \/ Kortenberg","freebikes":7,"freespots":13,"state":"open","latitude":50.840936140715,"longitude":4.3833221900234},"bikelot60":{"name":"063 - Jules Cesar","freebikes":4,"freespots":15,"state":"open","latitude":50.832999291117,"longitude":4.4203762602457},"bikelot61":{"name":"064 - Veterinaires \/ Veeartsen","freebikes":23,"freespots":2,"state":"open","latitude":50.831042741919,"longitude":4.3297938469599},"bikelot62":{"name":"065 - Parvis De St Gilles\/st-gillisvoorplein","freebikes":21,"freespots":4,"state":"open","latitude":50.828278797587,"longitude":4.3432925061016},"bikelot63":{"name":"066 - Schuman \/ Schuman","freebikes":23,"freespots":2,"state":"open","latitude":50.841653119531,"longitude":4.3786803106124},"bikelot64":{"name":"067 - Parc Cinquantenaire \/ Jubelpark","freebikes":2,"freespots":21,"state":"open","latitude":50.838044120975,"longitude":4.3841602087836},"bikelot65":{"name":"068 - Jean Rey\/jean Rey","freebikes":25,"freespots":0,"state":"open","latitude":50.838576094373,"longitude":4.3788653505201},"bikelot66":{"name":"069 - Lesbroussart\/lesbroussart","freebikes":0,"freespots":29,"state":"open","latitude":50.825870890055,"longitude":4.3625319979958},"bikelot67":{"name":"070 - Aurore\/dageraad","freebikes":1,"freespots":24,"state":"open","latitude":50.816406854366,"longitude":4.3701809206133},"bikelot68":{"name":"071 - Legrand\/legrand","freebikes":5,"freespots":17,"state":"open","latitude":50.813312831164,"longitude":4.3707169507786},"bikelot69":{"name":"072 - Ulb Solbosch \/ Vub  Solbosch","freebikes":6,"freespots":21,"state":"open","latitude":50.810782852052,"longitude":4.3779377839944},"bikelot70":{"name":"073 - Vleurgat\/vleurgat","freebikes":1,"freespots":24,"state":"open","latitude":50.822191881944,"longitude":4.3664869401971},"bikelot71":{"name":"074 - Place Loix\/loixplein","freebikes":5,"freespots":20,"state":"open","latitude":50.830229864001,"longitude":4.3517722380364},"bikelot72":{"name":"075 - General Baron\/generaal Baron","freebikes":1,"freespots":24,"state":"open","latitude":50.824181738214,"longitude":4.3391236837916},"bikelot73":{"name":"076 - Place Van Meenen\/van Meenenplein","freebikes":5,"freespots":20,"state":"open","latitude":50.824042765067,"longitude":4.3439005509142},"bikelot74":{"name":"077 - Paul Janson\/paul Janson","freebikes":0,"freespots":25,"state":"open","latitude":50.825692838518,"longitude":4.3540162410852},"bikelot75":{"name":"078 - Duc Petiaux\/duc Petiaux","freebikes":3,"freespots":21,"state":"open","latitude":50.821992785517,"longitude":4.3503583985379},"bikelot76":{"name":"079 - Loi \/ Wet","freebikes":19,"freespots":2,"state":"open","latitude":50.842424096267,"longitude":4.3736054426487},"bikelot77":{"name":"080 - Ceres\/ceres","freebikes":7,"freespots":18,"state":"open","latitude":50.813145858018,"longitude":4.3755288173928},"bikelot78":{"name":"081 - Pont Bockstael\/brug Bockstael","freebikes":19,"freespots":5,"state":"open","latitude":50.868553133126,"longitude":4.3419299544994},"bikelot79":{"name":"082 - Pannenhuis\/pannenhuis","freebikes":4,"freespots":16,"state":"open","latitude":50.871306147778,"longitude":4.3404219567459},"bikelot80":{"name":"083 - Simonis\/simonis","freebikes":20,"freespots":5,"state":"open","latitude":50.861133999707,"longitude":4.3299954006721},"bikelot81":{"name":"084 - Ste Anne\/sint-anna","freebikes":12,"freespots":8,"state":"open","latitude":50.857253959829,"longitude":4.3288424901174},"bikelot82":{"name":"085 - Etangs Noirs\/zwarte Vijvers","freebikes":25,"freespots":0,"state":"open","latitude":50.855559482732,"longitude":4.331103829712},"bikelot83":{"name":"086 - Maison Communal De Jette\/gemeentehuis Jette","freebikes":13,"freespots":12,"state":"open","latitude":50.87448907391,"longitude":4.3232123966825},"bikelot84":{"name":"087 - Miroir\/spiegel","freebikes":4,"freespots":21,"state":"open","latitude":50.869685029584,"longitude":4.32264948303},"bikelot85":{"name":"088 - Woeste\/woeste","freebikes":2,"freespots":23,"state":"open","latitude":50.871648107381,"longitude":4.3330461602739},"bikelot86":{"name":"089 - Athenee De Jette\/atheneum Van Jette","freebikes":5,"freespots":20,"state":"open","latitude":50.86948680823,"longitude":4.32866008162},"bikelot87":{"name":"090 - Broustin\/broustin","freebikes":12,"freespots":5,"state":"open","latitude":50.865742012901,"longitude":4.3255424590265},"bikelot88":{"name":"091 - Belgica\/belgica","freebikes":18,"freespots":7,"state":"open","latitude":50.866067065046,"longitude":4.3339522164997},"bikelot89":{"name":"092 - Lenoir\/lenoir","freebikes":3,"freespots":21,"state":"open","latitude":50.874120102717,"longitude":4.3286562481497},"bikelot90":{"name":"093 - Clovis \/ Clovis","freebikes":5,"freespots":20,"state":"open","latitude":50.848914188576,"longitude":4.3798861700083},"bikelot91":{"name":"094 - Duchesse De Brabant\/hertogin Van Brabant","freebikes":8,"freespots":12,"state":"open","latitude":50.847508871284,"longitude":4.3279196589312},"bikelot92":{"name":"095 - Place Bockstael\/bockstaelplaats","freebikes":8,"freespots":17,"state":"open","latitude":50.876374227746,"longitude":4.346664705862},"bikelot93":{"name":"096 - Hotel President\/president Hotel","freebikes":25,"freespots":0,"state":"open","latitude":50.862169169762,"longitude":4.3574426096642},"bikelot94":{"name":"097 - Karreveld\/karreveld","freebikes":6,"freespots":18,"state":"open","latitude":50.856351885134,"longitude":4.317424826082},"bikelot95":{"name":"098 - Cimetiere\/kerkhof","freebikes":8,"freespots":12,"state":"open","latitude":50.857333856635,"longitude":4.3111379894323},"bikelot96":{"name":"099 - Jubile\/jubile","freebikes":0,"freespots":25,"state":"open","latitude":50.863286060177,"longitude":4.3371661664166},"bikelot97":{"name":"100 - Gare Du Luxembourg\/station Luxembourg","freebikes":16,"freespots":14,"state":"open","latitude":50.836705036608,"longitude":4.3717545787892},"bikelot98":{"name":"102 - Museum\/museum","freebikes":6,"freespots":19,"state":"open","latitude":50.834084030496,"longitude":4.3745165392092},"bikelot99":{"name":"103 - Ernest Solvay\/ernest Solvay","freebikes":14,"freespots":11,"state":"open","latitude":50.833085953418,"longitude":4.3628498833303},"bikelot100":{"name":"104 - Fernand Cocq\/fernand Cocq","freebikes":15,"freespots":10,"state":"open","latitude":50.831597955399,"longitude":4.3653458346399},"bikelot101":{"name":"105 - De Hennin","freebikes":3,"freespots":17,"state":"open","latitude":50.827924939306,"longitude":4.3679348153397},"bikelot102":{"name":"106 - Germoir\/mouterij","freebikes":16,"freespots":9,"state":"open","latitude":50.82830599795,"longitude":4.3773595436214},"bikelot103":{"name":"107 - Defacqz\/defacqz","freebikes":2,"freespots":23,"state":"open","latitude":50.825945862698,"longitude":4.3577661314829},"bikelot104":{"name":"108 - Flagey\/flagey","freebikes":17,"freespots":18,"state":"open","latitude":50.826305940528,"longitude":4.3704907668835},"bikelot105":{"name":"109 - Chatelain\/kastelein","freebikes":0,"freespots":25,"state":"open","latitude":50.822341837072,"longitude":4.3586311598208},"bikelot106":{"name":"110 - Rodin\/rodin","freebikes":2,"freespots":20,"state":"open","latitude":50.82528599428,"longitude":4.3811134818896},"bikelot107":{"name":"111 - Etangs Mellaerts","freebikes":14,"freespots":9,"state":"open","latitude":50.826125292454,"longitude":4.430555073902},"bikelot108":{"name":"112 - Page\/edelknaap","freebikes":2,"freespots":18,"state":"open","latitude":50.81986079604,"longitude":4.3552432917992},"bikelot109":{"name":"113 - Abbaye De La Cambre \/ Abdij Ter Kameren","freebikes":10,"freespots":9,"state":"open","latitude":50.818335890419,"longitude":4.3735197981053},"bikelot110":{"name":"114 - Saisons\/jaargetijden","freebikes":2,"freespots":23,"state":"open","latitude":50.818684955544,"longitude":4.3840924945215},"bikelot111":{"name":"115 - Petite Suisse\/klein Zwitserland","freebikes":4,"freespots":20,"state":"open","latitude":50.816068930981,"longitude":4.3837055437723},"bikelot112":{"name":"116 - Ulb Plaine","freebikes":11,"freespots":14,"state":"open","latitude":50.816546998436,"longitude":4.3944832325503},"bikelot113":{"name":"119 - Paquot\/pacquot","freebikes":0,"freespots":20,"state":"open","latitude":50.823883965728,"longitude":4.3782895821662},"bikelot114":{"name":"120 - Blyckaerts\/blyckaerts","freebikes":3,"freespots":22,"state":"open","latitude":50.831166000021,"longitude":4.3735646088657},"bikelot115":{"name":"121 - Etangs \/ Vijvers","freebikes":5,"freespots":19,"state":"open","latitude":50.822279918174,"longitude":4.3725247684306},"bikelot116":{"name":"122 - Gare D'etterbeek\/station Van Etterbeek","freebikes":16,"freespots":14,"state":"open","latitude":50.820500994345,"longitude":4.3880593559265},"bikelot117":{"name":"123 - Bascule\/bascule","freebikes":1,"freespots":24,"state":"open","latitude":50.815800820135,"longitude":4.3652330691697},"bikelot118":{"name":"124 - Charles Graux","freebikes":6,"freespots":19,"state":"open","latitude":50.816576809533,"longitude":4.3623031405299},"bikelot119":{"name":"125 - Georges Brugmann\/georges Brugmann","freebikes":4,"freespots":21,"state":"open","latitude":50.815685746373,"longitude":4.352840420736},"bikelot120":{"name":"126 - Fabry","freebikes":10,"freespots":15,"state":"open","latitude":50.83558238962,"longitude":4.4333528559683},"bikelot121":{"name":"127 - Gray\/gray","freebikes":6,"freespots":14,"state":"open","latitude":50.830488011077,"longitude":4.3764285379284},"bikelot122":{"name":"128 - Musee Du Tram","freebikes":17,"freespots":8,"state":"open","latitude":50.8306493342,"longitude":4.4310909923124},"bikelot123":{"name":"130 - Rond Point Du Souverain","freebikes":15,"freespots":8,"state":"open","latitude":50.818538217505,"longitude":4.4288142344468},"bikelot124":{"name":"131 - Jardin Massart","freebikes":13,"freespots":12,"state":"open","latitude":50.811584185746,"longitude":4.4334842047605},"bikelot125":{"name":"132 - Deux Chaussees","freebikes":8,"freespots":11,"state":"open","latitude":50.81463220668,"longitude":4.4326281841707},"bikelot126":{"name":"133 - Ch\u00c2teau\/kasteel","freebikes":14,"freespots":10,"state":"open","latitude":50.865088904158,"longitude":4.3079583657814},"bikelot127":{"name":"134 - Place De Bastogne\/bastenaken","freebikes":16,"freespots":9,"state":"open","latitude":50.860945912334,"longitude":4.315379816619},"bikelot128":{"name":"135 - Parc Lacroix\/lacroix Park","freebikes":19,"freespots":6,"state":"open","latitude":50.871038350995,"longitude":4.3753809724192},"bikelot129":{"name":"136 - Pavillon\/paviljoen","freebikes":22,"freespots":2,"state":"open","latitude":50.868103297457,"longitude":4.370542152304},"bikelot130":{"name":"137 - Maison Communale De Schaerbeek","freebikes":1,"freespots":7,"state":"open","latitude":50.864904277744,"longitude":4.3718361627143},"bikelot131":{"name":"138 - Houffalize\/houffalize","freebikes":15,"freespots":10,"state":"open","latitude":50.863512293105,"longitude":4.3764690522285},"bikelot132":{"name":"139 - Liedts\/liedts","freebikes":5,"freespots":20,"state":"open","latitude":50.862166216957,"longitude":4.3654753826818},"bikelot133":{"name":"140 - Azalees\/azalea","freebikes":17,"freespots":7,"state":"open","latitude":50.860998292542,"longitude":4.3800229887233},"bikelot134":{"name":"141 - Gare Du Nord\/noordstation","freebikes":9,"freespots":26,"state":"open","latitude":50.858946138768,"longitude":4.356850673683},"bikelot135":{"name":"142 - Bienfaiteurs\/weldoeners","freebikes":0,"freespots":24,"state":"open","latitude":50.855613278537,"longitude":4.385457914248},"bikelot136":{"name":"143 - Rtl\/rtl","freebikes":9,"freespots":16,"state":"open","latitude":50.855512402205,"longitude":4.4066123181136},"bikelot137":{"name":"144 - Sainte-marie\/sinte-maria","freebikes":10,"freespots":15,"state":"open","latitude":50.856074173196,"longitude":4.3668784324446},"bikelot138":{"name":"145 - Coteaux\/wijnheuvelen","freebikes":1,"freespots":24,"state":"open","latitude":50.857390248957,"longitude":4.3778511030779},"bikelot139":{"name":"146 - Leopold Iii\/leopold Iii","freebikes":3,"freespots":22,"state":"open","latitude":50.857537379121,"longitude":4.3997554820498},"bikelot140":{"name":"147 - Emile Max Lycee\/lyceum Emile Max","freebikes":4,"freespots":21,"state":"open","latitude":50.860168231678,"longitude":4.3708802592691},"bikelot141":{"name":"148 - Gare Meiser\/meiser Station","freebikes":2,"freespots":20,"state":"open","latitude":50.853923311675,"longitude":4.3935407107215},"bikelot142":{"name":"149 - Jules Lebrun\/jules Lebrun","freebikes":1,"freespots":24,"state":"open","latitude":50.854502367122,"longitude":4.402119459873},"bikelot143":{"name":"150 - Meiser\/meiser","freebikes":19,"freespots":6,"state":"open","latitude":50.8529483248,"longitude":4.3971846221079},"bikelot144":{"name":"151 - Louvain 488-494\/leuven 488-494","freebikes":14,"freespots":11,"state":"open","latitude":50.851812280023,"longitude":4.3912248071515},"bikelot145":{"name":"152 - Place Dailly\/daillyplein","freebikes":0,"freespots":24,"state":"open","latitude":50.85068324027,"longitude":4.3861069683052},"bikelot146":{"name":"153 - Square Armand Steurs\/armand Steurssquare","freebikes":2,"freespots":13,"state":"open","latitude":50.85242219999,"longitude":4.3767362075107},"bikelot147":{"name":"154 - Plasky\/plasky","freebikes":9,"freespots":16,"state":"open","latitude":50.849535283509,"longitude":4.3951197305705},"bikelot148":{"name":"155 - Les Maronniers","freebikes":12,"freespots":8,"state":"open","latitude":50.820933077848,"longitude":4.4016279665764},"bikelot149":{"name":"156 - Jambline De Meux\/jamblinne De Meux","freebikes":9,"freespots":16,"state":"open","latitude":50.845452230235,"longitude":4.3919888789595},"bikelot150":{"name":"157 - Heliotropes\/heliotropen","freebikes":1,"freespots":23,"state":"open","latitude":50.861682327408,"longitude":4.3849558392874},"bikelot151":{"name":"158 - Van Ysendijck:van Ysendijck","freebikes":9,"freespots":15,"state":"open","latitude":50.866249327319,"longitude":4.3783109599703},"bikelot152":{"name":"159 - Masui\/masui","freebikes":19,"freespots":6,"state":"open","latitude":50.867591238764,"longitude":4.3613044209284},"bikelot153":{"name":"160 - Elisa\/elisa","freebikes":14,"freespots":9,"state":"open","latitude":50.875795413226,"longitude":4.3790487988309},"bikelot154":{"name":"161 - Demolder\/demolder","freebikes":8,"freespots":17,"state":"open","latitude":50.870886368752,"longitude":4.3786198831062},"bikelot155":{"name":"163 - Chazal\/chazal","freebikes":7,"freespots":18,"state":"open","latitude":50.857406322363,"longitude":4.3903037510028},"bikelot156":{"name":"164 - Kennis\/kennis","freebikes":12,"freespots":13,"state":"open","latitude":50.865937361369,"longitude":4.3845507882141},"bikelot157":{"name":"165 - Cimetiere De Jette\/ Begraafplaats Jette","freebikes":21,"freespots":2,"state":"open","latitude":50.877962160953,"longitude":4.3329850693779},"bikelot158":{"name":"166 - Tref Centrum","freebikes":15,"freespots":10,"state":"open","latitude":50.874499148326,"longitude":4.335872038549},"bikelot159":{"name":"167 - Charles V\/karel V","freebikes":7,"freespots":15,"state":"open","latitude":50.867325926233,"longitude":4.3084669186381},"bikelot160":{"name":"168 - Hopital Fran\u00c7ais\/frans Hospitaal","freebikes":0,"freespots":25,"state":"open","latitude":50.864672865767,"longitude":4.3020171398742},"bikelot161":{"name":"169 - G.eeckhoud\/ G . Eekhoud","freebikes":6,"freespots":18,"state":"open","latitude":50.875419452385,"longitude":4.386248600847},"bikelot162":{"name":"170 - Riga\/riga","freebikes":3,"freespots":17,"state":"open","latitude":50.872824417629,"longitude":4.3841116993994},"bikelot163":{"name":"171 - Piscine Louis Nameche Zwembad","freebikes":12,"freespots":13,"state":"open","latitude":50.853082819195,"longitude":4.3109370573384},"bikelot164":{"name":"172 - Aeropolis\/aeropolis","freebikes":21,"freespots":4,"state":"open","latitude":50.86805839346,"longitude":4.3869246899559},"bikelot165":{"name":"173 - Bichon\/bichon","freebikes":2,"freespots":22,"state":"open","latitude":50.862950386652,"longitude":4.3931815882257},"bikelot166":{"name":"174 - Mennekens\/mennekens","freebikes":10,"freespots":12,"state":"open","latitude":50.852240836347,"longitude":4.3150859523838},"bikelot167":{"name":"175 - Beekant","freebikes":18,"freespots":6,"state":"open","latitude":50.85245987692,"longitude":4.3216837626835},"bikelot168":{"name":"176 - Colonel Bourg\/kolonel Bourg","freebikes":8,"freespots":17,"state":"open","latitude":50.850650365141,"longitude":4.4073683682195},"bikelot169":{"name":"177 - Chasseurs Ardennais\/ardense Jagers","freebikes":1,"freespots":24,"state":"open","latitude":50.847703225956,"longitude":4.3879969586675},"bikelot170":{"name":"178 - Diamant\/diamant","freebikes":7,"freespots":14,"state":"open","latitude":50.847328299865,"longitude":4.4010985941127},"bikelot171":{"name":"179 - Celtes\/kelten","freebikes":20,"freespots":10,"state":"open","latitude":50.837511190493,"longitude":4.3967488610995},"bikelot172":{"name":"180 - Jourdan\/jourdan","freebikes":18,"freespots":6,"state":"open","latitude":50.836020081006,"longitude":4.3802993475076},"bikelot173":{"name":"181 - Louis Titz\/louis Titz","freebikes":2,"freespots":22,"state":"open","latitude":50.83401713939,"longitude":4.3931290145896},"bikelot174":{"name":"182 - Boileau\/boileau","freebikes":5,"freespots":20,"state":"open","latitude":50.82997416596,"longitude":4.4035027810157},"bikelot175":{"name":"183 - La Chasse\/jacht","freebikes":1,"freespots":24,"state":"open","latitude":50.828222066223,"longitude":4.3890912136015},"bikelot176":{"name":"184 - Philippe Baucq\/philippe Baucq","freebikes":3,"freespots":22,"state":"open","latitude":50.829886053525,"longitude":4.3845203182622},"bikelot177":{"name":"185 - Pere De Deken\/pater De Deken","freebikes":2,"freespots":23,"state":"open","latitude":50.834091182414,"longitude":4.4003328100953},"bikelot178":{"name":"187 - Arsenal\/arsenaal","freebikes":22,"freespots":3,"state":"open","latitude":50.824897077645,"longitude":4.3958510715153},"bikelot179":{"name":"188 - Osseghem\/osseghem","freebikes":8,"freespots":16,"state":"open","latitude":50.855566808365,"longitude":4.3234964379802},"bikelot180":{"name":"189 - Place Van Meyel\/van Meyelplein","freebikes":3,"freespots":14,"state":"open","latitude":50.835218118324,"longitude":4.3878071472492},"bikelot181":{"name":"190 - Terdelt\/terdelt","freebikes":2,"freespots":20,"state":"open","latitude":50.866198392313,"longitude":4.3894296465058},"bikelot182":{"name":"191 - Artan","freebikes":1,"freespots":23,"state":"open","latitude":50.852267232417,"longitude":4.3824740476805},"bikelot183":{"name":"192 - Auberge De Jeunesse","freebikes":20,"freespots":5,"state":"open","latitude":50.84985591325,"longitude":4.3316595188688},"bikelot184":{"name":"193 - Gare De L'ouest","freebikes":7,"freespots":23,"state":"open","latitude":50.84715981811,"longitude":4.3193639058397},"bikelot185":{"name":"194 - Stuyvenberg","freebikes":21,"freespots":4,"state":"open","latitude":50.884179259617,"longitude":4.3407377588782},"bikelot186":{"name":"195 - Westland Shopping","freebikes":5,"freespots":20,"state":"open","latitude":50.835993535962,"longitude":4.2874629706983},"bikelot187":{"name":"196 - Prince De Liege \/ Prins Van Luik","freebikes":8,"freespots":16,"state":"open","latitude":50.845167669459,"longitude":4.2969065697224},"bikelot188":{"name":"197 - De Smet","freebikes":20,"freespots":5,"state":"open","latitude":50.846548779035,"longitude":4.3135900779666},"bikelot189":{"name":"198 - Scheut","freebikes":10,"freespots":15,"state":"open","latitude":50.845942732004,"longitude":4.3064502886313},"bikelot190":{"name":"199 - Henri Rey","freebikes":1,"freespots":13,"state":"open","latitude":50.841986682292,"longitude":4.3037224235837},"bikelot191":{"name":"200 - Veterans Coloniaux \/ Koloniale Veteranen","freebikes":6,"freespots":19,"state":"open","latitude":50.842260734757,"longitude":4.3122731779166},"bikelot192":{"name":"201 - Peterbos","freebikes":5,"freespots":19,"state":"open","latitude":50.840960620532,"longitude":4.2946756942736},"bikelot193":{"name":"202 - Aumale","freebikes":19,"freespots":6,"state":"open","latitude":50.837847689957,"longitude":4.3110472770996},"bikelot194":{"name":"203 - Demosthene","freebikes":13,"freespots":10,"state":"open","latitude":50.838743655059,"longitude":4.3037914690452},"bikelot195":{"name":"204 - Dupuis","freebikes":5,"freespots":20,"state":"open","latitude":50.835619563269,"longitude":4.2926688290341},"bikelot196":{"name":"205 - De Linde","freebikes":6,"freespots":12,"state":"open","latitude":50.833796580786,"longitude":4.298309696257},"bikelot197":{"name":"207 - Biestebroeck \/ Biestebroek","freebikes":14,"freespots":11,"state":"open","latitude":50.831717643983,"longitude":4.3121143365699},"bikelot198":{"name":"208 - Melba","freebikes":5,"freespots":20,"state":"open","latitude":50.830858524936,"longitude":4.2930478878645},"bikelot199":{"name":"209 - Veeweyde \/ Veeweide","freebikes":20,"freespots":5,"state":"open","latitude":50.826895522293,"longitude":4.2983577957054},"bikelot200":{"name":"210 - Marius Renard","freebikes":14,"freespots":11,"state":"open","latitude":50.826166452163,"longitude":4.2874441147181},"bikelot201":{"name":"211 - Metro Ceria","freebikes":16,"freespots":9,"state":"open","latitude":50.814821368046,"longitude":4.2895692202319},"bikelot202":{"name":"212 - Theo Lambert","freebikes":17,"freespots":5,"state":"open","latitude":50.825399467845,"longitude":4.291237018744},"bikelot203":{"name":"213 - La Roue \/ Het Rad","freebikes":5,"freespots":10,"state":"open","latitude":50.819311424015,"longitude":4.2926020690406},"bikelot204":{"name":"214 - Campus Ceria \/ Campus Van Ceria","freebikes":9,"freespots":20,"state":"open","latitude":50.814295388684,"longitude":4.2938581067543},"bikelot205":{"name":"215 - Cureghem \/ Kuregem","freebikes":2,"freespots":23,"state":"open","latitude":50.83515769641,"longitude":4.3160571748709},"bikelot206":{"name":"216 - Aristide Briand","freebikes":9,"freespots":16,"state":"open","latitude":50.827166549776,"longitude":4.3026546703439},"bikelot207":{"name":"217 - Bizet","freebikes":10,"freespots":13,"state":"open","latitude":50.823206476983,"longitude":4.2959849166147},"bikelot208":{"name":"218 - Delacroix","freebikes":17,"freespots":8,"state":"open","latitude":50.844221811737,"longitude":4.3225478588577},"bikelot209":{"name":"219 - Van Hellemont","freebikes":13,"freespots":10,"state":"open","latitude":50.827784450124,"longitude":4.2847431674215},"bikelot210":{"name":"220 - Luther King","freebikes":24,"freespots":1,"state":"open","latitude":50.823999431783,"longitude":4.2871141556706},"bikelot211":{"name":"221 - Curie","freebikes":23,"freespots":2,"state":"open","latitude":50.82013937561,"longitude":4.2831313245265},"bikelot212":{"name":"222 - Merckx","freebikes":16,"freespots":9,"state":"open","latitude":50.815455310106,"longitude":4.2787495166407},"bikelot213":{"name":"223 - Wiels \/ Wiels","freebikes":25,"freespots":0,"state":"open","latitude":50.822348640399,"longitude":4.3251121063411},"bikelot214":{"name":"224 - Rochefort","freebikes":21,"freespots":4,"state":"open","latitude":50.822645690377,"longitude":4.3332008735369},"bikelot215":{"name":"225 - Place Albert Plein","freebikes":13,"freespots":12,"state":"open","latitude":50.819410707086,"longitude":4.3407437078247},"bikelot216":{"name":"226 - Union\/unie","freebikes":25,"freespots":0,"state":"open","latitude":50.818232598906,"longitude":4.3240131975367},"bikelot217":{"name":"228 - Altitude Cent \/ Hoogte Honderd","freebikes":8,"freespots":17,"state":"open","latitude":50.814818633978,"longitude":4.3349479386322},"bikelot218":{"name":"229 - Zaman Forest National\/zaman Vorst National","freebikes":15,"freespots":3,"state":"open","latitude":50.811880541342,"longitude":4.3234173071708},"bikelot219":{"name":"230 - Berkendael \/ Berkendaal","freebikes":8,"freespots":16,"state":"open","latitude":50.816675707583,"longitude":4.3447966333772},"bikelot220":{"name":"232 - Domaine \/ Domein","freebikes":12,"freespots":13,"state":"open","latitude":50.809168544514,"longitude":4.3278942203703},"bikelot221":{"name":"233 - Parc Duden \/ Duden Park","freebikes":8,"freespots":12,"state":"open","latitude":50.812151580657,"longitude":4.3297281250055},"bikelot222":{"name":"234 - St Denis \/ St Denijs","freebikes":19,"freespots":5,"state":"open","latitude":50.808092467281,"longitude":4.3162825639627},"bikelot223":{"name":"235 - Forest National \/ Vorst Nationaal","freebikes":2,"freespots":23,"state":"open","latitude":50.808378512613,"longitude":4.3236003531521},"bikelot224":{"name":"237 - Parvis St Antoine\/st Antonius Voorplein","freebikes":23,"freespots":2,"state":"open","latitude":50.826265699152,"longitude":4.3294409267992},"bikelot225":{"name":"238 - Union Saint-gilloise \/ Sint-gillis Unie","freebikes":9,"freespots":11,"state":"open","latitude":50.818571634196,"longitude":4.3295380365482},"bikelot226":{"name":"239 - Darwin","freebikes":8,"freespots":17,"state":"open","latitude":50.817065139661,"longitude":4.3496964893262},"bikelot227":{"name":"240 - Vanderkindere","freebikes":0,"freespots":23,"state":"open","latitude":50.812216677899,"longitude":4.3462076587445},"bikelot228":{"name":"241 - Statuaires\/beeldhouwwerk","freebikes":17,"freespots":8,"state":"open","latitude":50.802210602387,"longitude":4.3478517586038},"bikelot229":{"name":"242 - Maison Communale D'uccle\/gemeentehuis Ukkel","freebikes":17,"freespots":6,"state":"open","latitude":50.802084508653,"longitude":4.3320572063054},"bikelot230":{"name":"243 - Rondpoint Churchill\/rotonde Churchill","freebikes":0,"freespots":24,"state":"open","latitude":50.810045694355,"longitude":4.3521595224563},"bikelot231":{"name":"244 - Bois De La Cambre","freebikes":9,"freespots":10,"state":"open","latitude":50.81047378548,"longitude":4.3670560956724},"bikelot232":{"name":"245 - Hamoir","freebikes":11,"freespots":14,"state":"open","latitude":50.797281715842,"longitude":4.3743160837843},"bikelot233":{"name":"246 - Gatti De Gamond","freebikes":12,"freespots":8,"state":"open","latitude":50.79476441763,"longitude":4.3271514516572},"bikelot234":{"name":"247 - Stalle","freebikes":19,"freespots":6,"state":"open","latitude":50.79415336651,"longitude":4.31931668173},"bikelot235":{"name":"248 - Prince De Ligne \/ Prince Lijn","freebikes":19,"freespots":3,"state":"open","latitude":50.793997676446,"longitude":4.3723661868335},"bikelot236":{"name":"249 - Saint-job\/sint-job","freebikes":20,"freespots":4,"state":"open","latitude":50.792479620689,"longitude":4.3650714148593},"bikelot237":{"name":"250 - Sainte-elisabeth","freebikes":1,"freespots":24,"state":"open","latitude":50.803633749585,"longitude":4.3708580884463},"bikelot238":{"name":"251 - Paola","freebikes":9,"freespots":10,"state":"open","latitude":50.798670442463,"longitude":4.3257214350123},"bikelot239":{"name":"252 - Bempt","freebikes":20,"freespots":5,"state":"open","latitude":50.800856394917,"longitude":4.314437721668},"bikelot240":{"name":"253 - Reine Fabiola \/ Koningin Fabiola","freebikes":5,"freespots":20,"state":"open","latitude":50.870768982226,"longitude":4.3130017399596},"bikelot241":{"name":"254 - Basilique \/ Basiliek","freebikes":5,"freespots":17,"state":"open","latitude":50.865686974503,"longitude":4.3190796425608},"bikelot242":{"name":"255 - Sacre-coeur Ganshoren \/ Heilige Hart Ganshor","freebikes":7,"freespots":18,"state":"open","latitude":50.866304942371,"longitude":4.3127038137861},"bikelot243":{"name":"256 - Van Overbeke","freebikes":22,"freespots":2,"state":"open","latitude":50.873060970768,"longitude":4.307712855949},"bikelot244":{"name":"257 - Pl Margherite D'autriche \/ Margaretha Van Oo","freebikes":9,"freespots":16,"state":"open","latitude":50.870462885487,"longitude":4.2969521983379},"bikelot245":{"name":"258 - Liberte","freebikes":0,"freespots":15,"state":"open","latitude":50.86044594743,"longitude":4.3220886342754},"bikelot246":{"name":"259 - Noville","freebikes":4,"freespots":16,"state":"open","latitude":50.857901988738,"longitude":4.33282536804},"bikelot247":{"name":"260 - Triton","freebikes":4,"freespots":21,"state":"open","latitude":50.865314480729,"longitude":4.4057281989629},"bikelot248":{"name":"261 - Conscience","freebikes":12,"freespots":8,"state":"open","latitude":50.867084452225,"longitude":4.3983203822462},"bikelot249":{"name":"262 - Place De La Paix \/ Vredeplain","freebikes":16,"freespots":2,"state":"open","latitude":50.875224528478,"longitude":4.3994552304458},"bikelot250":{"name":"263 - Maison Communale","freebikes":6,"freespots":13,"state":"open","latitude":50.870296501457,"longitude":4.4020192304844},"bikelot251":{"name":"264-notre Dame\/onze Lieve Vrouw","freebikes":5,"freespots":15,"state":"open","latitude":50.869277458711,"longitude":4.3962394088023},"bikelot252":{"name":"266 - Gare Bordet \/ Bordet Station","freebikes":16,"freespots":5,"state":"open","latitude":50.875846583359,"longitude":4.4078689835077},"bikelot253":{"name":"267 - Geneve","freebikes":2,"freespots":23,"state":"open","latitude":50.860004412704,"longitude":4.401880385756},"bikelot254":{"name":"268 - Dunant","freebikes":0,"freespots":20,"state":"open","latitude":50.861102467103,"longitude":4.4095241536649},"bikelot255":{"name":"269 - Ciceron","freebikes":11,"freespots":14,"state":"open","latitude":50.859153512812,"longitude":4.4201078833542},"bikelot256":{"name":"270 - De Paduwa","freebikes":2,"freespots":23,"state":"open","latitude":50.857421456954,"longitude":4.4131391056792},"bikelot257":{"name":"271 - Dubois","freebikes":11,"freespots":13,"state":"open","latitude":50.849451772926,"longitude":4.3083271842469},"bikelot258":{"name":"272 - Scheutbos","freebikes":6,"freespots":19,"state":"open","latitude":50.849138712037,"longitude":4.2983954695705},"bikelot259":{"name":"273 - Tamaris","freebikes":9,"freespots":16,"state":"open","latitude":50.85311778436,"longitude":4.3049452262089},"bikelot260":{"name":"274 - Corhay","freebikes":0,"freespots":25,"state":"open","latitude":50.858313836261,"longitude":4.3062381136148},"bikelot261":{"name":"275 - Versailles","freebikes":17,"freespots":3,"state":"open","latitude":50.894572527367,"longitude":4.3711607457252},"bikelot262":{"name":"276 - Croix De Guerres \/ Oorlogskruisen","freebikes":15,"freespots":10,"state":"open","latitude":50.888042520521,"longitude":4.3794886062954},"bikelot263":{"name":"277 - Van Praet","freebikes":19,"freespots":2,"state":"open","latitude":50.879882409927,"longitude":4.3725509224431},"bikelot264":{"name":"278 - Stade \/ Stadium","freebikes":15,"freespots":10,"state":"open","latitude":50.89229926969,"longitude":4.3306369253552},"bikelot265":{"name":"280 - Heysel \/ Heisel","freebikes":0,"freespots":25,"state":"open","latitude":50.895816316967,"longitude":4.3335657908469},"bikelot266":{"name":"281 - Atomnium","freebikes":4,"freespots":21,"state":"open","latitude":50.89377933762,"longitude":4.34004563746},"bikelot267":{"name":"282 - Centenaire \/ Eeuwfeest","freebikes":19,"freespots":6,"state":"open","latitude":50.888816317521,"longitude":4.3438466028531},"bikelot268":{"name":"283 - Piscine \/ Zwembad","freebikes":11,"freespots":2,"state":"open","latitude":50.891452527182,"longitude":4.3756646642568},"bikelot269":{"name":"285 - Coghen","freebikes":13,"freespots":10,"state":"open","latitude":50.811762624032,"longitude":4.3376869059622},"bikelot270":{"name":"286 - Bens","freebikes":11,"freespots":9,"state":"open","latitude":50.806433566652,"longitude":4.3356370417135},"bikelot271":{"name":"287 - Floreal","freebikes":11,"freespots":11,"state":"open","latitude":50.807627625756,"longitude":4.343978788761},"bikelot272":{"name":"288 - Houzeau","freebikes":20,"freespots":0,"state":"open","latitude":50.801004649214,"longitude":4.3575775017183},"bikelot273":{"name":"289 - Sq.j.marlow","freebikes":24,"freespots":0,"state":"open","latitude":50.799887529495,"longitude":4.3387970481343},"bikelot274":{"name":"290 - Gare De Calevoet \/ Kalevoet Station","freebikes":12,"freespots":13,"state":"open","latitude":50.789873400986,"longitude":4.3314054029687},"bikelot275":{"name":"291 - Decroly","freebikes":6,"freespots":13,"state":"open","latitude":50.802954484184,"longitude":4.3266223470347},"bikelot276":{"name":"292 - Rittweger","freebikes":17,"freespots":3,"state":"open","latitude":50.796032473374,"longitude":4.3348192167132},"bikelot277":{"name":"293 - Keym","freebikes":25,"freespots":0,"state":"open","latitude":50.808821971223,"longitude":4.4010441606038},"bikelot278":{"name":"294 - Wiener","freebikes":25,"freespots":0,"state":"open","latitude":50.796637965768,"longitude":4.4177478678912},"bikelot279":{"name":"295 - Coin Du Balai","freebikes":4,"freespots":20,"state":"open","latitude":50.791975923041,"longitude":4.4172309507808},"bikelot280":{"name":"297 - Ten Reuken","freebikes":25,"freespots":0,"state":"open","latitude":50.802749061105,"longitude":4.4251025708407},"bikelot281":{"name":"298 - Hall Des Sports","freebikes":21,"freespots":4,"state":"open","latitude":50.875330942471,"longitude":4.2995830526332},"bikelot282":{"name":"299 - Saint-adrien","freebikes":0,"freespots":20,"state":"open","latitude":50.807703868966,"longitude":4.3852756219774},"bikelot283":{"name":"300 - Gare De Boondael Station","freebikes":23,"freespots":2,"state":"open","latitude":50.799727838042,"longitude":4.3915655612688},"bikelot284":{"name":"301 - Marie-jose","freebikes":1,"freespots":19,"state":"open","latitude":50.804564848894,"longitude":4.386407635994},"bikelot285":{"name":"303 - Vieux Tilleul","freebikes":16,"freespots":9,"state":"open","latitude":50.806196892675,"longitude":4.3914904686597},"bikelot286":{"name":"304 - Araucaria","freebikes":22,"freespots":3,"state":"open","latitude":50.891791449869,"longitude":4.3620310448276},"bikelot287":{"name":"305 - Peter Benoit","freebikes":11,"freespots":14,"state":"open","latitude":50.893886612957,"longitude":4.3866983164304},"bikelot288":{"name":"308 - Tivoli","freebikes":13,"freespots":4,"state":"open","latitude":50.870559202917,"longitude":4.3508926716816},"bikelot289":{"name":"309 - Centenaire","freebikes":24,"freespots":1,"state":"open","latitude":50.873504027216,"longitude":4.3166895955858},"bikelot290":{"name":"310 - Saint Vincent \/ Sint Vincent","freebikes":13,"freespots":7,"state":"open","latitude":50.87887456529,"longitude":4.4004071498325},"bikelot291":{"name":"311 - Delta","freebikes":8,"freespots":14,"state":"open","latitude":50.816750045707,"longitude":4.4022240110932},"bikelot292":{"name":"312 - Centre Culturel \/ Cultureel Centrum","freebikes":10,"freespots":15,"state":"open","latitude":50.815242168616,"longitude":4.4252843824338},"bikelot293":{"name":"313 - Demey","freebikes":22,"freespots":2,"state":"open","latitude":50.813252095339,"longitude":4.4157206815003},"bikelot294":{"name":"314 - Hermann Debroux","freebikes":30,"freespots":0,"state":"open","latitude":50.81061913753,"longitude":4.4266954104602},"bikelot295":{"name":"315 - Sacre Coeur Auderghem \/ Heilige Hart Oudergh","freebikes":10,"freespots":10,"state":"open","latitude":50.80861616657,"longitude":4.4345222190372},"bikelot296":{"name":"317 - Geyskens","freebikes":12,"freespots":8,"state":"open","latitude":50.817840159234,"longitude":4.4199314953604},"bikelot297":{"name":"318 - Cardinal Mercier","freebikes":11,"freespots":15,"state":"open","latitude":50.878833133046,"longitude":4.3269652268422},"bikelot298":{"name":"319 - Ancienne Barriere","freebikes":8,"freespots":15,"state":"open","latitude":50.883491110724,"longitude":4.3163834578131},"bikelot299":{"name":"320 - Uz Brussel","freebikes":22,"freespots":0,"state":"open","latitude":50.885295085372,"longitude":4.3094366278694},"bikelot300":{"name":"321 - Sacre-c\u0152ur Jette \/ Heilige Hart Jette","freebikes":1,"freespots":18,"state":"open","latitude":50.882545176838,"longitude":4.3290221142082},"bikelot301":{"name":"322 - Parc Du Roi Baudouin \/ Boudewijnpark","freebikes":0,"freespots":20,"state":"open","latitude":50.887817137741,"longitude":4.3146884423088},"bikelot302":{"name":"323 - Carene","freebikes":19,"freespots":1,"state":"open","latitude":50.853480428244,"longitude":4.413979139901},"bikelot303":{"name":"324 - Thomas Balis","freebikes":7,"freespots":18,"state":"open","latitude":50.81793511134,"longitude":4.4116597274081},"bikelot304":{"name":"325 - Hankar","freebikes":1,"freespots":24,"state":"open","latitude":50.820029086196,"longitude":4.4043559028358}},"occupied":3656,"available":3555,"total":7211,"occupation":"51%","status":"#996600"}