{"lots":{"bikelot1":{"name":"Dageraadplaats","freebikes":22,"freespots":11,"state":"normal","latitude":"51.206943170944800000","longitude":"4.430101723012998000"},"bikelot2":{"name":"Lozana","freebikes":15,"freespots":3,"state":"normal","latitude":"51.201777902281430000","longitude":"4.406064590410548000"},"bikelot3":{"name":"Wezenberg","freebikes":16,"freespots":5,"state":"normal","latitude":"51.193119169424930000","longitude":"4.408029450760751000"},"bikelot4":{"name":"Permeke","freebikes":20,"freespots":7,"state":"normal","latitude":"51.221734856855480000","longitude":"4.420708379829534000"},"bikelot5":{"name":"Hessenhuis","freebikes":13,"freespots":7,"state":"normal","latitude":"51.226218373722870000","longitude":"4.409645771552839000"},"bikelot6":{"name":"M Hka","freebikes":9,"freespots":18,"state":"normal","latitude":"51.211015066009840000","longitude":"4.390343681438131000"},"bikelot7":{"name":"Cockerillkaai","freebikes":13,"freespots":15,"state":"normal","latitude":"51.212140000000000000","longitude":"4.389800000000000000"},"bikelot8":{"name":"Bourla","freebikes":12,"freespots":9,"state":"normal","latitude":"51.216453689177240000","longitude":"4.405926457819422000"},"bikelot9":{"name":"Theater","freebikes":28,"freespots":2,"state":"normal","latitude":"51.215593476438820000","longitude":"4.412371967260860000"},"bikelot10":{"name":"Harmonie","freebikes":5,"freespots":15,"state":"normal","latitude":"51.202284892494660000","longitude":"4.412070122941341000"},"bikelot11":{"name":"Gr\u00e9trystraat","freebikes":15,"freespots":15,"state":"normal","latitude":"51.203684000000000000","longitude":"4.415281000000000000"},"bikelot12":{"name":"Falconplein","freebikes":13,"freespots":5,"state":"normal","latitude":"51.226881774868240000","longitude":"4.405497597996209000"},"bikelot13":{"name":"Tolhuis","freebikes":14,"freespots":11,"state":"normal","latitude":"51.225853570944370000","longitude":"4.400856169167690000"},"bikelot14":{"name":"Waaslandtunnel","freebikes":13,"freespots":17,"state":"normal","latitude":"51.225837712185110000","longitude":"4.414619531422663000"},"bikelot15":{"name":"Paardenmarkt","freebikes":19,"freespots":0,"state":"full","latitude":"51.224651454235930000","longitude":"4.413298397408935000"},"bikelot16":{"name":"Ossenmarkt","freebikes":21,"freespots":0,"state":"full","latitude":"51.221855438767100000","longitude":"4.412985000366758000"},"bikelot17":{"name":"Minderbroedersrui","freebikes":11,"freespots":19,"state":"normal","latitude":"51.222187310742380000","longitude":"4.404587621644557000"},"bikelot18":{"name":"Wolstraat","freebikes":2,"freespots":16,"state":"normal","latitude":"51.221541666666670000","longitude":"4.402666666666667000"},"bikelot19":{"name":"Noorderterras","freebikes":2,"freespots":27,"state":"normal","latitude":"51.224389429501930000","longitude":"4.399097050370182000"},"bikelot20":{"name":"Het Steen","freebikes":25,"freespots":11,"state":"normal","latitude":"51.221099223306060000","longitude":"4.396804494276738000"},"bikelot21":{"name":"Grote Markt","freebikes":17,"freespots":19,"state":"normal","latitude":"51.221587619408710000","longitude":"4.400512730484778000"},"bikelot22":{"name":"Zuiderterras","freebikes":29,"freespots":5,"state":"normal","latitude":"51.219092146698830000","longitude":"4.394899321136949000"},"bikelot23":{"name":"Plantinkaai","freebikes":10,"freespots":20,"state":"normal","latitude":"51.216434552320200000","longitude":"4.393691048333439000"},"bikelot24":{"name":"Modemuseum","freebikes":9,"freespots":15,"state":"normal","latitude":"51.217088702234010000","longitude":"4.399251391055215000"},"bikelot25":{"name":"Oudaan","freebikes":7,"freespots":16,"state":"normal","latitude":"51.215778420832180000","longitude":"4.403141962080859000"},"bikelot26":{"name":"Sint Andries","freebikes":3,"freespots":27,"state":"normal","latitude":"51.214847821494130000","longitude":"4.396344222405702000"},"bikelot27":{"name":"Sint-michielskaai","freebikes":2,"freespots":28,"state":"normal","latitude":"51.215228827630020000","longitude":"4.392818765521578000"},"bikelot28":{"name":"Tropisch Instituut","freebikes":20,"freespots":7,"state":"normal","latitude":"51.211872754130070000","longitude":"4.398986182742563000"},"bikelot29":{"name":"Vismijn","freebikes":5,"freespots":13,"state":"normal","latitude":"51.212334197409090000","longitude":"4.394022819445082000"},"bikelot30":{"name":"Vlaamsekaai","freebikes":11,"freespots":13,"state":"normal","latitude":"51.209766966838010000","longitude":"4.390930567194764000"},"bikelot31":{"name":"Nationale Bank","freebikes":10,"freespots":13,"state":"normal","latitude":"51.211034506177270000","longitude":"4.407260707520346000"},"bikelot32":{"name":"Justitiepaleis","freebikes":4,"freespots":23,"state":"normal","latitude":"51.204680732033860000","longitude":"4.387671971509639000"},"bikelot33":{"name":"Fotografiemuseum","freebikes":16,"freespots":5,"state":"normal","latitude":"51.208774601784840000","longitude":"4.387372992419973000"},"bikelot34":{"name":"Brederode","freebikes":11,"freespots":15,"state":"normal","latitude":"51.207752878324130000","longitude":"4.398509639357570000"},"bikelot35":{"name":"Elzenveld","freebikes":0,"freespots":24,"state":"empty","latitude":"51.213441440396450000","longitude":"4.404966647429536000"},"bikelot36":{"name":"Den Bell","freebikes":5,"freespots":19,"state":"normal","latitude":"51.205832366301900000","longitude":"4.398812741627194000"},"bikelot37":{"name":"Troonplaats","freebikes":0,"freespots":25,"state":"empty","latitude":"51.203312319424730000","longitude":"4.391825911583953000"},"bikelot38":{"name":"Lange Elzen","freebikes":2,"freespots":19,"state":"normal","latitude":"51.200731198663220000","longitude":"4.394213916060354000"},"bikelot39":{"name":"Haantjeslei","freebikes":4,"freespots":16,"state":"normal","latitude":"51.201140515457520000","longitude":"4.402212232689625000"},"bikelot40":{"name":"Hof Van Leysen","freebikes":14,"freespots":7,"state":"normal","latitude":"51.198425910748000000","longitude":"4.402230221840753000"},"bikelot41":{"name":"Ballaertstraat","freebikes":6,"freespots":12,"state":"normal","latitude":"51.204546675722690000","longitude":"4.404774275762020000"},"bikelot42":{"name":"Hemelstraat","freebikes":5,"freespots":12,"state":"normal","latitude":"51.208823463763380000","longitude":"4.408297423288219000"},"bikelot43":{"name":"Sint-thomas","freebikes":5,"freespots":16,"state":"normal","latitude":"51.204509611888380000","longitude":"4.410634013269819000"},"bikelot44":{"name":"Sint Vincentius","freebikes":7,"freespots":23,"state":"normal","latitude":"51.205410000000000000","longitude":"4.413560000000000000"},"bikelot45":{"name":"Paleisstraat","freebikes":4,"freespots":24,"state":"normal","latitude":"51.204800000000000000","longitude":"4.396100000000000000"},"bikelot46":{"name":"Quinten Mathijslei","freebikes":23,"freespots":7,"state":"normal","latitude":"51.214151404317630000","longitude":"4.416319522723214000"},"bikelot47":{"name":"Stadspark","freebikes":4,"freespots":19,"state":"normal","latitude":"51.213282141837700000","longitude":"4.413109498483254000"},"bikelot48":{"name":"Cuperus","freebikes":1,"freespots":20,"state":"normal","latitude":"51.202779812559390000","longitude":"4.428828981041583000"},"bikelot49":{"name":"Haringrode","freebikes":2,"freespots":19,"state":"normal","latitude":"51.199839911369490000","longitude":"4.418930242293162000"},"bikelot50":{"name":"Generaal Leman","freebikes":17,"freespots":5,"state":"normal","latitude":"51.197060067715470000","longitude":"4.410264715254410000"},"bikelot51":{"name":"Premetro Handel","freebikes":0,"freespots":36,"state":"empty","latitude":"51.224100000000000000","longitude":"4.432000000000000000"},"bikelot52":{"name":"Oude Kerk Berchem","freebikes":12,"freespots":12,"state":"normal","latitude":"51.192945140567120000","longitude":"4.421033928187006000"},"bikelot53":{"name":"Mercator","freebikes":11,"freespots":7,"state":"normal","latitude":"51.208207812316810000","longitude":"4.424294009067518000"},"bikelot54":{"name":"Plantin En Moretus","freebikes":10,"freespots":11,"state":"normal","latitude":"51.209027738585180000","longitude":"4.432625218239298000"},"bikelot55":{"name":"Draakplaats","freebikes":9,"freespots":12,"state":"normal","latitude":"51.205609036285810000","longitude":"4.432210218293591000"},"bikelot56":{"name":"Moorkensplein","freebikes":6,"freespots":12,"state":"normal","latitude":"51.213660847392510000","longitude":"4.433276632960023000"},"bikelot57":{"name":"Kerkstraat","freebikes":4,"freespots":17,"state":"normal","latitude":"51.218579585329130000","longitude":"4.430513466501682000"},"bikelot58":{"name":"111- Van Der Meyden","freebikes":20,"freespots":16,"state":"normal","latitude":"51.210200000000000000","longitude":"4.427400000000000000"},"bikelot59":{"name":"Helmstraat","freebikes":14,"freespots":4,"state":"normal","latitude":"51.218608995997560000","longitude":"4.438622043829003000"},"bikelot60":{"name":"Zna Stuivenberg","freebikes":15,"freespots":5,"state":"normal","latitude":"51.222053118770870000","longitude":"4.433777992711939000"},"bikelot61":{"name":"Metro Elisabeth","freebikes":12,"freespots":9,"state":"normal","latitude":"51.222754423402240000","longitude":"4.424183815656882000"},"bikelot62":{"name":"Loosplaats","freebikes":8,"freespots":10,"state":"normal","latitude":"51.210096006315090000","longitude":"4.417215972702701000"},"bikelot63":{"name":"Sint Jansplein","freebikes":10,"freespots":20,"state":"normal","latitude":"51.225419369818670000","longitude":"4.418404418360266000"},"bikelot64":{"name":"Dambrugge","freebikes":11,"freespots":10,"state":"normal","latitude":"51.227142087032800000","longitude":"4.422247361006011000"},"bikelot65":{"name":"Eendracht","freebikes":1,"freespots":22,"state":"normal","latitude":"51.227532000000000000","longitude":"4.439042000000000000"},"bikelot66":{"name":"Stuivenbergplein","freebikes":16,"freespots":14,"state":"normal","latitude":"51.227460419479400000","longitude":"4.430533809533261000"},"bikelot67":{"name":"Schijnpoort","freebikes":5,"freespots":16,"state":"normal","latitude":"51.224708822052630000","longitude":"4.436567207739302000"},"bikelot68":{"name":"Park Spoor Noord 2","freebikes":4,"freespots":14,"state":"normal","latitude":"51.229038768621690000","longitude":"4.424935536896917000"},"bikelot69":{"name":"Park Spoor Noord 1","freebikes":18,"freespots":12,"state":"normal","latitude":"51.229962000000000000","longitude":"4.419613000000000000"},"bikelot70":{"name":"Fod Financi\u00ebn","freebikes":17,"freespots":13,"state":"normal","latitude":"51.228578444757660000","longitude":"4.413307095780299000"},"bikelot71":{"name":"Godefriduskaai","freebikes":28,"freespots":7,"state":"normal","latitude":"51.228400000000000000","longitude":"4.408800000000000000"},"bikelot72":{"name":"Lamoriniere","freebikes":2,"freespots":15,"state":"normal","latitude":"51.203800000000000000","longitude":"4.420800000000000000"},"bikelot73":{"name":"De Wittestraat","freebikes":12,"freespots":9,"state":"normal","latitude":"51.193756253382520000","longitude":"4.412152929349810000"},"bikelot74":{"name":"Montgomery","freebikes":7,"freespots":10,"state":"normal","latitude":"51.211773597965510000","longitude":"4.437785965534147000"},"bikelot75":{"name":"Willemdok","freebikes":5,"freespots":19,"state":"normal","latitude":"51.229581467123380000","longitude":"4.411349321449047000"},"bikelot76":{"name":"Mas","freebikes":22,"freespots":1,"state":"normal","latitude":"51.228112037401260000","longitude":"4.405728642058911000"},"bikelot77":{"name":"Loodswezen","freebikes":25,"freespots":2,"state":"normal","latitude":"51.226823115293120000","longitude":"4.400551181658024000"},"bikelot78":{"name":"Centraal Station - Astrid","freebikes":21,"freespots":9,"state":"normal","latitude":"51.217820000000000000","longitude":"4.420650000000000000"},"bikelot79":{"name":"Centraal Station - Astrid 2","freebikes":5,"freespots":31,"state":"normal","latitude":"51.217580000000000000","longitude":"4.420750000000000000"},"bikelot80":{"name":"De Keyserlei","freebikes":4,"freespots":17,"state":"normal","latitude":"51.217363888888890000","longitude":"4.420094444444445000"},"bikelot81":{"name":"Centraal Station \/ Kievit","freebikes":26,"freespots":10,"state":"normal","latitude":"51.213010729744090000","longitude":"4.421732916607050000"},"bikelot82":{"name":"Nmbs Berchem ","freebikes":0,"freespots":36,"state":"empty","latitude":"51.201075847164230000","longitude":"4.433947713271024000"},"bikelot83":{"name":"Nmbs Oost","freebikes":10,"freespots":8,"state":"normal","latitude":"51.208965217072930000","longitude":"4.437700892649170000"},"bikelot84":{"name":"Nmbs Zuid","freebikes":4,"freespots":30,"state":"normal","latitude":"51.198469689711210000","longitude":"4.390718261329017000"},"bikelot85":{"name":"Roosvelt","freebikes":12,"freespots":11,"state":"normal","latitude":"51.219977935197350000","longitude":"4.416330472403196000"},"bikelot86":{"name":"Brussel","freebikes":28,"freespots":8,"state":"normal","latitude":"51.199306000000000000","longitude":"4.390135000000000000"},"bikelot87":{"name":"014- Markgrave","freebikes":24,"freespots":12,"state":"normal","latitude":"51.196813000000000000","longitude":"4.405689000000000000"},"bikelot88":{"name":"Schone Kunsten","freebikes":8,"freespots":16,"state":"normal","latitude":"51.207822115171010000","longitude":"4.394392340970182000"},"bikelot89":{"name":"Groenplaats","freebikes":2,"freespots":15,"state":"normal","latitude":"51.218884242613400000","longitude":"4.401197046278909000"},"bikelot90":{"name":"Meirbrug","freebikes":31,"freespots":5,"state":"normal","latitude":"51.218187010036840000","longitude":"4.406168081225285000"},"bikelot91":{"name":"Eiermarkt","freebikes":23,"freespots":1,"state":"normal","latitude":"51.219240000000000000","longitude":"4.403610000000000000"},"bikelot92":{"name":"Groenplaats 2","freebikes":8,"freespots":19,"state":"normal","latitude":"51.218800000000000000","longitude":"4.401000000000000000"},"bikelot93":{"name":"Rubenshuis","freebikes":15,"freespots":5,"state":"normal","latitude":"51.217084162925510000","longitude":"4.408880661964794000"},"bikelot94":{"name":"Teniersplaats","freebikes":29,"freespots":1,"state":"normal","latitude":"51.218421968221080000","longitude":"4.415447262420427000"},"bikelot95":{"name":"Keizerstraat","freebikes":15,"freespots":9,"state":"normal","latitude":"51.221488045020520000","longitude":"4.408659692889357000"},"bikelot96":{"name":"Prekersplein","freebikes":11,"freespots":13,"state":"normal","latitude":"51.214035000000000000","longitude":"4.398093000000000000"},"bikelot97":{"name":"061- Victor Jacobslei","freebikes":13,"freespots":22,"state":"normal","latitude":"51.197809668607660000","longitude":"4.425406466971353000"},"bikelot98":{"name":"Lange Dijk","freebikes":6,"freespots":30,"state":"normal","latitude":"51.228050034031310000","longitude":"4.419015786408293000"},"bikelot99":{"name":"Duinstraat","freebikes":3,"freespots":33,"state":"normal","latitude":"51.222461014719360000","longitude":"4.430256657794283000"},"bikelot100":{"name":"Centraal Station Kievit 2","freebikes":10,"freespots":18,"state":"normal","latitude":"51.213085853125690000","longitude":"4.421771338842944000"},"bikelot101":{"name":"Nmbs Berchem 2","freebikes":3,"freespots":27,"state":"normal","latitude":"51.201089073030410000","longitude":"4.433958407621510000"},"bikelot102":{"name":"Jachthaven Lo","freebikes":22,"freespots":14,"state":"normal","latitude":"51.231422666361720000","longitude":"4.391627018623872000"},"bikelot103":{"name":"Sint-anna","freebikes":15,"freespots":21,"state":"normal","latitude":"51.235252570032700000","longitude":"4.386875385241651000"},"bikelot104":{"name":"Esmoreitlaan","freebikes":5,"freespots":31,"state":"normal","latitude":"51.233439980056400000","longitude":"4.382542133810354000"},"bikelot105":{"name":"August Vermeylenlaan","freebikes":13,"freespots":23,"state":"normal","latitude":"51.231267105658740000","longitude":"4.378669800971490000"},"bikelot106":{"name":"De Coster","freebikes":13,"freespots":11,"state":"normal","latitude":"51.227842213432080000","longitude":"4.378550835716943000"},"bikelot107":{"name":"Reinaartlaan","freebikes":12,"freespots":20,"state":"normal","latitude":"51.227778771508360000","longitude":"4.385890517853628000"},"bikelot108":{"name":"Halewijnlaan","freebikes":8,"freespots":15,"state":"normal","latitude":"51.223918702975620000","longitude":"4.377876746950817000"},"bikelot109":{"name":"Verhaerenlaan","freebikes":20,"freespots":16,"state":"normal","latitude":"51.223198209027030000","longitude":"4.386220088490688000"},"bikelot110":{"name":"Van Eedenplein","freebikes":23,"freespots":13,"state":"normal","latitude":"51.220613099914330000","longitude":"4.386331953024964000"},"bikelot111":{"name":"Waterhoenlaan","freebikes":9,"freespots":15,"state":"normal","latitude":"51.220073488674270000","longitude":"4.381723278952854000"},"bikelot112":{"name":"151- Van Cauwelaert","freebikes":28,"freespots":6,"state":"normal","latitude":"51.220313008869570000","longitude":"4.378407092993419000"},"bikelot113":{"name":"Blancefloerlaan","freebikes":9,"freespots":24,"state":"normal","latitude":"51.220073040155330000","longitude":"4.375590099454385000"},"bikelot114":{"name":"Beatrijslaan","freebikes":12,"freespots":24,"state":"normal","latitude":"51.218528603221080000","longitude":"4.385706443546232000"},"bikelot115":{"name":"Pretoriastraat","freebikes":9,"freespots":27,"state":"normal","latitude":"51.203446266096090000","longitude":"4.436840753419609000"},"bikelot116":{"name":"De Merode","freebikes":0,"freespots":36,"state":"empty","latitude":"51.199103721132640000","longitude":"4.415516549585612000"},"bikelot117":{"name":"Fonteinstraat","freebikes":22,"freespots":14,"state":"normal","latitude":"51.211159421441590000","longitude":"4.441964470690549000"},"bikelot118":{"name":"Mutsaardplein","freebikes":15,"freespots":9,"state":"normal","latitude":"51.222896207511770000","longitude":"4.406112888467821000"},"bikelot119":{"name":"Ploeg","freebikes":11,"freespots":12,"state":"normal","latitude":"51.215371766191990000","longitude":"4.425367882174795000"},"bikelot120":{"name":"Sint-norbertus","freebikes":12,"freespots":24,"state":"normal","latitude":"51.225955645521620000","longitude":"4.423474198206600000"},"bikelot121":{"name":"027- Lange Nieuwstraat","freebikes":19,"freespots":17,"state":"normal","latitude":"51.219502912476460000","longitude":"4.411949186215027000"}},"occupied":1792,"available":1433,"total":3225,"occupation":"56%","status":"#996600"}